{"datos":[
	{"pais": "colombia","dpto": "Tolima","ciudad": "Mariquita","barrio": "Mujeres Solidarias","vereda": "urbano","nombre": "Ada","lastFriends": "1111111111,2222222222,3333333333,4444444444,5555555555,6666666666,7777777777","phone": "9999999999","password": "12345678","lastLocation": {"type": "Point","coordinates": [-74.90284707588398, 5.19462867561461]},"role": "user"},
	{"pais": "colombia","dpto": "Tolima","ciudad": "Mariquita","barrio": "Mujeres Solidarias","vereda": "urbano","nombre": "Bertha","lastFriends": "5555555555,6666666666,7777777777,8888888888,9999999999","phone": "1111111111","password": "12345678","lastLocation": {"type": "Point","coordinates": [-74.90083075150675, 5.199334617822108]},"role": "user"},
	{"pais": "colombia","dpto": "Tolima","ciudad": "Mariquita","barrio": "Mujeres Solidarias","vereda": "urbano","nombre": "Carlos","lastFriends": "7777777777,8888888888,9999999999,1111112222,1111113333,1111114444","phone": "2222222222","password": "12345678","lastLocation": {"type": "Point","coordinates": [-74.89761956792596, 5.196309368234331]},"role": "user"},
	{"pais": "colombia","dpto": "Tolima","ciudad": "Mariquita","barrio": "Mujeres Solidarias","vereda": "urbano","nombre": "Daniela","lastFriends": "8888888888,9999999999,1111112222,1111113333,1111114444,1111115555,1111116666","phone": "3333333333","password": "12345678","lastLocation": {"type": "Point","coordinates": [-74.89871805244914, 5.200360732982681]},"role": "user"},
	{"pais": "colombia","dpto": "Tolima","ciudad": "Mariquita","barrio": "Mujeres Solidarias","vereda": "urbano","nombre": "Esperanza","lastFriends": "1111112222,1111113333,1111114444,1111115555,1111116666,1111117777,1111118888,11111119999","phone": "4444444444","password": "12345678","lastLocation": {"type": "Point","coordinates": [-74.89742509851236, 5.200184376686247]},"role": "user"},
	{"pais": "colombia","dpto": "Tolima","ciudad": "Mariquita","barrio": "Mujeres Solidarias","vereda": "urbano","nombre": "Fabiola","lastFriends": "1111114444,1111115555,1111116666,1111117777,1111118888,11111119999,1111110000,2222221111","phone": "5555555555","password": "12345678","lastLocation": {"type": "Point","coordinates": [-74.89589706216391, 5.202614174428622]},"role": "user"},
	{"pais": "colombia","dpto": "Tolima","ciudad": "Mariquita","barrio": "Mujeres Solidarias","vereda": "urbano","nombre": "Guillermo","lastFriends": "1111116666,1111117777,1111118888,11111119999,1111110000,2222221111,2222223333,2222224444","phone": "6666666666","password": "12345678","lastLocation": {"type": "Point","coordinates": [-74.89366377858043, 5.203672312476323]},"role": "user"},
	{"pais": "colombia","dpto": "Tolima","ciudad": "Mariquita","barrio": "Mujeres Solidarias","vereda": "urbano","nombre": "Heidi","lastFriends": "1111118888,11111119999,1111110000,2222221111,2222223333,2222224444,2222225555,2222226666","phone": "7777777777","password": "12345678","lastLocation": {"type": "Point","coordinates": [-74.89211083636484, 5.198518814355188]},"role": "user"},
	{"pais": "colombia","dpto": "Tolima","ciudad": "Mariquita","barrio": "Mujeres Solidarias","vereda": "urbano","nombre": "Ismael","lastFriends": "1111110000,2222221111,2222223333,2222224444,2222225555,2222226666,2222227777,2222228888,2222229999","phone": "8888888888","password": "12345678","lastLocation": {"type": "Point","coordinates": [-74.88999620555477, 5.199358658866628]},"role": "user"},
	{"pais": "colombia","dpto": "Tolima","ciudad": "Mariquita","barrio": "Mujeres Solidarias","vereda": "urbano","nombre": "Julio","lastFriends": "2222223333,2222224444,2222225555,2222226666,2222227777,2222228888,2222229999,2222220000,3333331111","phone": "1111112222","password": "12345678","lastLocation": {"type": "Point","coordinates": [-74.89501120907583, 5.1942729340543545]},"role": "user"},
	{"pais": "colombia","dpto": "Tolima","ciudad": "Mariquita","barrio": "Mujeres Solidarias","vereda": "urbano","nombre": "Kevin","lastFriends": "2222225555,2222226666,2222227777,2222228888,2222229999,2222220000,3333331111,3333332222,3333334444","phone": "1111113333","password": "12345678","lastLocation": {"type": "Point","coordinates": [-74.88891609498245, 5.1942729340543545]},"role": "user"},
	{"pais": "colombia","dpto": "Tolima","ciudad": "Mariquita","barrio": "Mujeres Solidarias","vereda": "urbano","nombre": "Luis","lastFriends": "2222229999,2222220000,3333331111,3333332222,3333334444,3333335555,3333336666","phone": "1111114444","password": "12345678","lastLocation": {"type": "Point","coordinates": [-74.88907158219033, 5.188953918815235]},"role": "user"},
	{"pais": "colombia","dpto": "Tolima","ciudad": "Mariquita","barrio": "Mujeres Solidarias","vereda": "urbano","nombre": "Maria","lastFriends": "3333331111,3333332222,3333334444,3333335555,3333336666,3333337777,3333338888,3333339999","phone": "1111115555","password": "12345678","lastLocation": {"type": "Point","coordinates": [-74.8881697557014, 5.197694523848852]},"role": "user"},
	{"pais": "colombia","dpto": "Tolima","ciudad": "Mariquita","barrio": "Mujeres Solidarias","vereda": "urbano","nombre": "Nelly","lastFriends": "3333334444,3333335555,3333336666,3333337777,3333338888,3333339999,3333330000,4444441111,4444442222,4444443333,4444445555,4444446666","phone": "1111116666","password": "12345678","lastLocation": {"type": "Point","coordinates": [-74.88561975831776, 5.196294782996452]},"role": "user"},
	{"pais": "colombia","dpto": "Tolima","ciudad": "Mariquita","barrio": "Mujeres Solidarias","vereda": "urbano","nombre": "Osiris","lastFriends": "3333336666,3333337777,3333338888,3333339999,3333330000,4444441111,4444442222,4444443333,4444445555,4444446666,4444447777","phone": "1111117777","password": "12345678","lastLocation": {"type": "Point","coordinates": [-74.88552646633468, 5.194895041289718]},"role": "user"},
	{"pais": "colombia","dpto": "Tolima","ciudad": "Mariquita","barrio": "Mujeres Solidarias","vereda": "urbano","nombre": "Pedro","lastFriends": "3333338888,3333339999,3333330000,4444441111,4444442222,4444443333,4444445555,4444446666,4444447777,4444448888","phone": "1111118888","password": "12345678","lastLocation": {"type": "Point","coordinates": [-74.88583744075042, 5.193619722226124]},"role": "user"},
	{"pais": "colombia","dpto": "Tolima","ciudad": "Mariquita","barrio": "Mujeres Solidarias","vereda": "urbano","nombre": "Quintero","lastFriends": "3333330000,4444441111,4444442222,4444443333,4444445555,4444446666,4444447777,4444448888,4444449999","phone": "1111119999","password": "12345678","lastLocation": {"type": "Point","coordinates": [-74.88356732273249, 5.194957252184121]},"role": "user"},
	{"pais": "colombia","dpto": "Tolima","ciudad": "Mariquita","barrio": "Mujeres Solidarias","vereda": "urbano","nombre": "Raul","lastFriends": "4444442222,4444443333,4444445555,4444446666,4444447777,4444448888,4444449999,4444440000","phone": "1111110000","password": "12345678","lastLocation": {"type": "Point","coordinates": [-74.8833185418333, 5.193650826818992]},"role": "user"},	
	{"pais": "colombia","dpto": "Tolima","ciudad": "Mariquita","barrio": "Mujeres Solidarias","vereda": "urbano","nombre": "Samuel","lastFriends": "4444445555,4444446666,4444447777,4444448888,4444449999,4444440000,5555551111,5555552222,5555553333,5555554444","phone": "2222221111","password": "12345678","lastLocation": {"type": "Point","coordinates": [-74.88403378435609, 5.192033348690515]},"role": "user"},
	{"pais": "colombia","dpto": "Tolima","ciudad": "Mariquita","barrio": "Mujeres Solidarias","vereda": "urbano","nombre": "Tovar","lastFriends": "4444447777,4444448888,4444449999,4444440000,5555551111,5555552222,5555553333,5555554444,5555556666,5555557777","phone": "2222223333","password": "12345678","lastLocation": {"type": "Point","coordinates": [-74.88667707543104, 5.191380136862279]},"role": "user"},
	{"pais": "colombia","dpto": "Tolima","ciudad": "Mariquita","barrio": "Mujeres Solidarias","vereda": "urbano","nombre": "Ubaldo","lastFriends": "4444449999,4444440000,5555551111,5555552222,5555553333,5555554444,5555556666,5555557777,5555558888,5555559999","phone": "2222224444","password": "12345678","lastLocation": {"type": "Point","coordinates": [-74.88857402210019, 5.188269601539798]},"role": "user"},
	{"pais": "colombia","dpto": "Tolima","ciudad": "Mariquita","barrio": "Mujeres Solidarias","vereda": "urbano","nombre": "Velasquez","lastFriends": "4444449999,4444440000,5555551111,5555552222,5555553333,5555554444,5555556666,5555557777,5555558888,5555559999,6666660000","phone": "2222225555","password": "12345678","lastLocation": {"type": "Point","coordinates": [-74.88766764516315, 5.186262357408596]},"role": "user"}
]}